{"business_id": "-MsRvdPnuw6QuLn5Vxjruw","name": "Brian's Furniture","address": "30808 Center Ridge Rd","city": "Westlake","state": "OH","postal_code": "44145","latitude": 41.4227938,"longitude": -81.9622151,"stars": 5.0,"review_count": 3,"is_open": 1,"attributes": null,"categories": "Shopping, Home Services, Interior Design, Rugs, Furniture Stores, Home & Garden, Home Decor, Mattresses","hours": {"Monday": "11:0-20:0","Tuesday": "10:0-20:0","Wednesday": "10:0-20:0","Thursday": "10:0-18:0","Friday": "10:0-18:0","Saturday": "11:0-18:0","Sunday": "0:0-17:0"}}
{"business_id": "C_oejk3EzfsxP7-owQDkbQ", "name": "Camp Bow Wow Westlake", "address": "863 Bradley Rd", "city": "Westlake", "state": "OH", "postal_code": "44145", "latitude": 41.4749701, "longitude": -81.9594054, "stars": 4.0, "review_count": 22, "is_open": 1, "attributes": null, "categories": "Pet Services, Pet Sitting, Pets", "hours": {"Monday": "6:30-18:30", "Tuesday": "6:30-18:30", "Wednesday": "6:30-18:30", "Thursday": "6:30-18:30", "Friday": "6:30-18:30", "Saturday": "8:0-18:0", "Sunday": "16:0-18:30"}}
{"business_id": "nYvBZYg9rfqWFTYuxSVMdw", "name": "Cantina Laredo", "address": "2004 Crocker Rd", "city": "Westlake", "state": "OH", "postal_code": "44145", "latitude": 41.4615685424, "longitude": -81.9513030882, "stars": 4.0, "review_count": 62, "is_open": 1, "attributes": {"GoodForKids": "False", "RestaurantsTakeOut": "True", "GoodForDancing": "False", "RestaurantsGoodForGroups": "True", "RestaurantsReservations": "True", "Ambience": "{'touristy': False, 'hipster': False, 'romantic': False, 'divey': False, 'intimate': False, 'trendy': False, 'upscale': False, 'classy': False, 'casual': False}", "GoodForMeal": "{'dessert': False, 'latenight': False, 'lunch': False, 'dinner': False, 'brunch': False, 'breakfast': False}", "HasTV": "True", "BusinessParking": "{'garage': False, 'street': False, 'validated': False, 'lot': False, 'valet': False}", "OutdoorSeating": "True", "WiFi": "u'free'", "RestaurantsDelivery": "False", "HappyHour": "True", "RestaurantsPriceRange2": "2", "BusinessAcceptsCreditCards": "True"}, "categories": "Mexican, Bars, Restaurants, Vegetarian, Nightlife", "hours": {"Monday": "11:0-22:0", "Tuesday": "11:0-22:0", "Wednesday": "11:0-22:0", "Thursday": "11:0-22:0", "Friday": "11:0-23:0", "Saturday": "11:0-23:0", "Sunday": "11:0-21:0"}}
{"business_id": "0ZN2MfHyjNIkCx7qJvVhDg", "name": "SB Eightyone", "address": "24481 Detroit Rd", "city": "Westlake", "state": "OH", "postal_code": "44145", "latitude": 41.470596, "longitude": -81.891643, "stars": 2.5, "review_count": 34, "is_open": 0, "attributes": {"OutdoorSeating": "True", "Alcohol": "u'full_bar'", "WiFi": "u'free'", "BusinessParking": "{'garage': False, 'street': False, 'validated': False, 'lot': True, 'valet': False}", "GoodForKids": "True", "RestaurantsPriceRange2": "2", "HasTV": "True", "RestaurantsReservations": "True", "Caters": "True", "RestaurantsGoodForGroups": "True", "BusinessAcceptsCreditCards": "True", "NoiseLevel": "u'average'", "RestaurantsAttire": "u'casual'", "RestaurantsDelivery": "False", "Ambience": "{'romantic': True, 'intimate': False, 'classy': False, 'hipster': False, 'divey': False, 'touristy': False, 'trendy': False, 'upscale': False, 'casual': False}", "RestaurantsTakeOut": "True"}, "categories": "Restaurants, Nightlife, American (New), Dance Clubs, Italian", "hours": {"Monday": "11:0-2:0", "Tuesday": "11:0-2:0", "Wednesday": "11:0-2:0", "Thursday": "11:0-2:0", "Friday": "11:0-2:0", "Saturday": "11:0-2:0", "Sunday": "10:0-14:0"}}
