{"business_id": "YlQjjoZqSlgZBwWgOaACZQ", "name": "Cigna", "address": "9069 W Thunderbird Rd", "city": "Mocktown", "state": "AZ", "postal_code": "85351", "latitude": 33.6093444, "longitude": -112.254329, "stars": 1.0, "review_count": 6, "is_open": 1, "attributes": {"BikeParking": "False", "BusinessAcceptsCreditCards": "True", "RestaurantsPriceRange2": "1", "ByAppointmentOnly": "True"}, "categories": "Eyewear & Opticians, Insurance, Urgent Care, Doctors, Financial Services, Drugstores, Shopping, Audiologist, Health & Medical", "hours": {"Monday": "7:0-17:0", "Tuesday": "7:0-17:0", "Wednesday": "7:0-17:0", "Thursday": "7:0-17:0", "Friday": "7:0-17:0"}}
{"business_id": "mW28NmePxX7pZv8lCv7v2Q", "name": "Convenient Food Mart", "address": "27112 Detroit Rd", "city": "Mocktown", "state": "OH", "postal_code": "44145", "latitude": 41.4678278, "longitude": -81.9203225, "stars": 5.0, "review_count": 5, "is_open": 1, "attributes": {"RestaurantsPriceRange2": "1", "BusinessParking": "{'garage': False, 'street': False, 'validated': False, 'lot': True, 'valet': False}", "RestaurantsTakeOut": "True", "BusinessAcceptsCreditCards": "True"}, "categories": "Food, Convenience Stores, Grocery", "hours": null}
{"business_id": "-ak1fx5L9cNjUE56as12MA", "name": "Stick to Your Buns", "address": "26333 Center Ridge Rd", "city": "Mocktown", "state": "OH", "postal_code": "44145", "latitude": 41.4521403, "longitude": -81.9131096, "stars": 5.0, "review_count": 13, "is_open": 1, "attributes": {"BusinessParking": "{'garage': False, 'street': False, 'validated': False, 'lot': False, 'valet': False}", "RestaurantsDelivery": "False", "BusinessAcceptsCreditCards": "True", "RestaurantsTakeOut": "True", "RestaurantsPriceRange2": "1"}, "categories": "Cupcakes, Bakeries, Food", "hours": {"Monday": "0:0-0:0", "Tuesday": "8:0-18:0", "Wednesday": "8:0-18:0", "Thursday": "8:0-18:0", "Friday": "8:0-18:0", "Saturday": "8:0-16:0", "Sunday": "8:0-16:0"}}
